{
  "code": 0,
  "msg": "",
  "count": 1000,
  "data": [
    {
      "id": 10000,
      "name": "电脑",
      "model": "联想y52",
      "location": "研发部",
      "peo": "tom",
      "time": "2019.4.24",
      "state": "待处理",
      "number": "3"
    },
    {
      "id": 10001,
      "name": "椅子",
      "model": "普通椅子",
      "location": "研发部",
      "peo": "tom",
      "time": "2019.4.24",
      "state": "待处理",
      "number": "3"
    },
    {
      "id": 10002,
      "name": "电脑",
      "model": "联想y52",
      "location": "研发部",
      "peo": "tom",
      "time": "2019.4.24",
      "state": "待处理",
      "number": "3"
    },
    {
      "id": 10000,
      "name": "电脑",
      "model": "联想y52",
      "location": "研发部",
      "peo": "tom",
      "time": "2019.4.24",
      "state": "待处理",
      "number": "3"
    },
    {
      "id": 10000,
      "name": "电脑",
      "model": "联想y52",
      "location": "研发部",
      "peo": "tom",
      "time": "2019.4.24",
      "state": "待处理",
      "number": "3"
    },
    {
      "id": 10000,
      "name": "电脑",
      "model": "联想y52",
      "location": "研发部",
      "peo": "tom",
      "time": "2019.4.24",
      "state": "待处理",
      "number": "3"
    },
    {
      "id": 10001,
      "name": "椅子",
      "model": "普通椅子",
      "location": "研发部",
      "peo": "tom",
      "time": "2019.4.24",
      "state": "待处理",
      "number": "3"
    },
    {
      "id": 10002,
      "name": "电脑",
      "model": "联想y52",
      "location": "研发部",
      "peo": "tom",
      "time": "2019.4.24",
      "state": "待处理",
      "number": "3"
    },
    {
      "id": 10000,
      "name": "电脑",
      "model": "联想y52",
      "location": "研发部",
      "peo": "tom",
      "time": "2019.4.24",
      "state": "待处理",
      "number": "3"
    }
  ]
}